Site,Lon,Lat
Haibei1,101.3126,37.60979
Haibei2,101.3259,37.66313
Site1,102.7869,37.17701
Henan,101.608269,34.744047
Shiqu,98.100725,32.964575
Maqu,102.063872,33.989178
Xinghai,99.965961,35.596417
Gande,99.883139,33.963344
Site31,101.31666,37.61667
